[
    { "name": "Kyiv", "latitude": 50.4500, "longitude": 30.5236 },
    { "name": "Kharkiv", "latitude": 50.0000, "longitude": 36.2292 },
    { "name": "Odesa", "latitude": 46.4775, "longitude": 30.7326 },
    { "name": "Dnipro", "latitude": 48.4500, "longitude": 34.9833 },
    { "name": "Donetsk", "latitude": 48.0089, "longitude": 37.8042 },
    { "name": "Zaporizhzhia", "latitude": 47.8378, "longitude": 35.1383 },
    { "name": "Lviv", "latitude": 49.8419, "longitude": 24.0315 },
    { "name": "Kryvyi Rih", "latitude": 47.9086, "longitude": 33.3433 },
    { "name": "Mykolaiv", "latitude": 46.9667, "longitude": 32.0000 },
    { "name": "Mariupol", "latitude": 47.1306, "longitude": 37.5639 },
    { "name": "Sevastopol", "latitude": 44.6000, "longitude": 33.5333 },
    { "name": "Luhansk", "latitude": 48.5833, "longitude": 39.3333 },
    { "name": "Vinnytsia", "latitude": 49.2372, "longitude": 28.4672 },
    { "name": "Simferopol", "latitude": 44.9484, "longitude": 34.1000 },
    { "name": "Poltava", "latitude": 49.5744, "longitude": 34.5686 },
    { "name": "Chernihiv", "latitude": 51.4939, "longitude": 31.2947 },
    { "name": "Kherson", "latitude": 46.6333, "longitude": 32.6000 },
    { "name": "Cherkasy", "latitude": 49.4444, "longitude": 32.0597 },
    { "name": "Khmelnytskyi", "latitude": 49.4200, "longitude": 27.0000 },
    { "name": "Zhytomyr", "latitude": 50.2544, "longitude": 28.6578 },
    { "name": "Chernivtsi", "latitude": 48.2908, "longitude": 25.9344 },
    { "name": "Sumy", "latitude": 50.9068, "longitude": 34.7992 },
    { "name": "Horlivka", "latitude": 48.3336, "longitude": 38.0925 },
    { "name": "Rivne", "latitude": 50.6197, "longitude": 26.2514 },
    { "name": "Ivano-Frankivsk", "latitude": 48.9228, "longitude": 24.7106 },
    { "name": "Kremenchuk", "latitude": 49.0775, "longitude": 33.4239 },
    { "name": "Kropyvnytskyi", "latitude": 48.5103, "longitude": 32.2667 },
    { "name": "Ternopil", "latitude": 49.5667, "longitude": 25.6000 }
]